{
  "generated_at": "2026-05-18T22:49:56Z",
  "grid_m": 50.0,
  "radius_km": "auto",
  "model": "ITU-R P.1812 + P.2108",
  "gateways": [
    {
      "code": "24e124fffef4778e",
      "name": "24e124fffef4778e",
      "lat": 20.89967088823762,
      "lon": 106.63570404052736,
      "elapsed_s": 39001.0,
      "cells": 2137444,
      "covered_cells": 64359
    },
    {
      "code": "7076ff0054070418",
      "name": "7076ff0054070418",
      "lat": 20.90107409448514,
      "lon": 106.59278869628908,
      "elapsed_s": 39808.9,
      "cells": 2137444,
      "covered_cells": 91284
    },
    {
      "code": "7276ff002e0507da",
      "name": "DNIIT GW 0507da",
      "lat": 16.0740935,
      "lon": 108.1524913,
      "elapsed_s": 32053.9,
      "cells": 2137444,
      "covered_cells": 39940
    },
    {
      "code": "7276ff002e06029f",
      "name": "DNIIT GW 06029f",
      "lat": 16.0659959,
      "lon": 108.1532551,
      "elapsed_s": 32516.3,
      "cells": 2137444,
      "covered_cells": 57671
    },
    {
      "code": "7276ff002e061f5b",
      "name": "DNIIT GW 061f5b",
      "lat": 16.075590133666992,
      "lon": 108.22207641601562,
      "elapsed_s": 27146.0,
      "cells": 2137444,
      "covered_cells": 60222
    },
    {
      "code": "7276ff002e062cf2",
      "name": "DNIIT GW 062cf2",
      "lat": 16.11829376220703,
      "lon": 108.27363586425781,
      "elapsed_s": 23760.1,
      "cells": 2137444,
      "covered_cells": 1153398
    },
    {
      "code": "a840411eebb44150",
      "name": "DNIIT GW b44150",
      "lat": 16.0740984,
      "lon": 108.15253,
      "elapsed_s": 32021.7,
      "cells": 2137444,
      "covered_cells": 37874
    },
    {
      "code": "a84041ffff1ec39f",
      "name": "DNIIT GW 1ec39f",
      "lat": 16.0741086,
      "lon": 108.1525171,
      "elapsed_s": 32035.0,
      "cells": 2137444,
      "covered_cells": 38805
    },
    {
      "code": "ac1f09fffe00ab20",
      "name": "DNIIT GW 00ab20",
      "lat": 16.05469,
      "lon": 108.22009,
      "elapsed_s": 26863.3,
      "cells": 2137444,
      "covered_cells": 69875
    },
    {
      "code": "ac1f09fffe00ab25",
      "name": "DNIIT GW 00ab25",
      "lat": 16.11073,
      "lon": 108.12857,
      "elapsed_s": 27886.7,
      "cells": 2137444,
      "covered_cells": 87797
    },
    {
      "code": "ac1f09fffe06fcf2",
      "name": "DNIIT GW 06fcf2",
      "lat": 16.054765682623003,
      "lon": 108.21985626414313,
      "elapsed_s": 25007.1,
      "cells": 2137444,
      "covered_cells": 73922
    },
    {
      "code": "ac1f09fffe0fd629",
      "name": "DNIIT GW 0fd629",
      "lat": 16.06815,
      "lon": 108.15448,
      "elapsed_s": 26386.3,
      "cells": 2137444,
      "covered_cells": 66188
    },
    {
      "code": "ac1f09fffe0fd63b",
      "name": "DNIIT GW 0fd63b",
      "lat": 15.98571,
      "lon": 108.23986,
      "elapsed_s": 26368.8,
      "cells": 2137444,
      "covered_cells": 122175
    }
  ]
}